"location_id","location_type__001","location_type__002","location_type__003","location_type__004","open_soon","latitude","longitude"
"3rdstreetpromenade","store","","","","0","34.0182340000","-118.4983670000"
"aichstettensupercharger","supercharger","standard charger","","","0","47.8803440000","10.0403420000"
"albanysupercharger","supercharger","standard charger","","","0","42.7103560000","-73.8191090000"
"albertleasupercharger","supercharger","standard charger","","","0","43.6860600000","-93.3577210000"
"angolasupercharger","supercharger","standard charger","","","0","41.6990480000","-85.0003260000"
"arbogasupercharger","supercharger","standard charger","","","0","59.4263610000","15.8270830000"
"atascaderosupercharger","supercharger","standard charger","","","0","35.4865850000","-120.6663780000"
"aurlandsupercharger","supercharger","standard charger","","","0","60.8986490000","7.2108260000"
"auxerresupercharger","supercharger","standard charger","","","0","47.8522907700","3.5434028150"
"badrappenausupercharger","supercharger","standard charger","","","0","49.2119360000","9.0773220000"
"baselmohlin","store","service","","","0","47.5769950000","7.8411580000"
"beaversupercharger","supercharger","standard charger","","","0","38.2491490000","-112.6525240000"
"bellevuesquare","store","","","","0","47.6166710000","-122.2037650000"
"bergen","store","","","","0","60.3650820000","5.3426780000"
"berlinkurfuerstendamm","store","","","","0","52.5034200000","13.3279700000"
"billingssupercharger","supercharger","standard charger","","","0","45.7340460000","-108.6049320000"
"birmingham","store","service","","","0","52.4740050000","-1.8809450000"
"blandingsupercharger","supercharger","standard charger","","","0","37.6256180000","-109.4738420000"
"breamall","store","","","","0","33.9153838000","-117.8875168000"
"buckeyesupercharger","supercharger","standard charger","","","0","33.4430110000","-112.5568760000"
"buelltonsupercharger","supercharger","standard charger","","","0","34.6145550000","-120.1884320000"
"burlingame","store","service","standard charger","","0","37.5931280000","-122.3673060000"
"burlingtonncsupercharger","supercharger","standard charger","","","0","36.0707880000","-79.5112220000"
"burlingtonsupercharger","supercharger","standard charger","","","0","48.5097710000","-122.3386270000"
"centinela","store","service","","","0","33.9758500000","-118.3829230000"
"centraliasupercharger","supercharger","standard charger","","","0","46.7298720000","-122.9773920000"
"centurycity","store","","","","0","34.0581260000","-118.4182140000"
"chamberysupercharger","supercharger","standard charger","","","0","45.5922270000","5.8998420000"
"chassesurrhonesupercharger","supercharger","standard charger","","","0","45.5869300000","4.7878070000"
"chengdugaoxin","store","service","supercharger","standard charger","0","30.5885590000","104.0294970000"
"cheyennesupercharger","supercharger","standard charger","","","0","41.1610850000","-104.8049550000"
"chicagograndave","store","service","standard charger","","0","41.8908330000","-87.6542180000"
"columbusmorseroadservice","service","standard charger","","","0","40.0583524000","-82.9278916000"
"columbussupercharger","supercharger","standard charger","","","0","29.6900660000","-96.5377270000"
"corningsupercharger","supercharger","standard charger","","","0","39.9264600000","-122.1984000000"
"costamesa","store","","","","0","33.6774119000","-117.8798380000"
"cranberrytownshipsupercharger","supercharger","standard charger","","","0","40.6835080000","-80.1083270000"
"dadeland","store","","","","0","25.6898826000","-80.3142279000"
"daniabeach","store","service","","","0","26.0545388000","-80.1632571000"
"dariennorthsupercharger","supercharger","standard charger","","","0","41.0801030000","-73.4613500000"
"dariensouthsupercharger","supercharger","standard charger","","","0","41.0673060000","-73.5049170000"
"dedham","store","service","supercharger","standard charger","0","42.2359620000","-71.1782120000"
"denhaag","store","service","","","0","52.0703108000","4.3908317000"
"detroitlakesupercharger","supercharger","standard charger","","","0","44.7370250000","-122.1521080000"
"devon","store","service","standard charger","","0","40.0458650000","-75.4332790000"
"dombassupercharger","supercharger","standard charger","","","0","62.0739230000","9.1255620000"
"drammen","store","service","","","0","59.7303820000","10.2202520000"
"eastgreenwichsupercharger","supercharger","standard charger","","","0","41.6605170000","-71.4972420000"
"eastontowncenter","store","standard charger","","","0","40.0500870000","-82.9151650000"
"eauclairesupercharger","supercharger","standard charger","","","0","44.7708300000","-91.4371100000"
"eindhoven","store","","","","0","51.4816270000","5.4553170000"
"emsburensupercharger","supercharger","standard charger","","","0","52.3592410000","7.2642150000"
"falkenbergsupercharger","supercharger","standard charger","","","0","56.9319300000","12.5180500000"
"farmingtonsupercharger","supercharger","standard charger","","","0","36.7663150000","-108.1442660000"
"fashionisland","store","standard charger","","","0","33.6144050000","-117.8728630000"
"fashionsquare","store","standard charger","","","0","33.5031670000","-111.9296800000"
"folsompremiumoutletssupercharger","supercharger","standard charger","","","0","38.6422910000","-121.1881300000"
"fortmyerssupercharger","supercharger","standard charger","","","0","26.4855740000","-81.7871490000"
"frankfurthanauerlandstrasse","store","service","","","0","50.1328490000","8.7658610000"
"fremont","store","supercharger","standard charger","","0","37.4924390000","-121.9447250000"
"gallupsupercharger","supercharger","standard charger","","","0","35.5052780000","-108.8280940000"
"gardenstateplaza","store","standard charger","","","0","40.9175177000","-74.0769911000"
"gilabendsupercharger","supercharger","standard charger","","","0","32.9436750000","-112.7340810000"
"glenallensupercharger","supercharger","standard charger","","","0","37.6697600000","-77.4614140000"
"glenwoodspringssupercharger","supercharger","standard charger","","","0","39.5526760000","-107.3401710000"
"golsupercharger","supercharger","standard charger","","","0","60.7023330000","8.9860000000"
"goodlandsupercharger","supercharger","standard charger","","","0","39.3262580000","-101.7251070000"
"gramschatzerwaldsupercharger","supercharger","standard charger","","","0","49.9115786400","10.0014063300"
"grandjunctionsupercharger","supercharger","standard charger","","","0","39.0907580000","-108.6043250000"
"graz","store","service","supercharger","standard charger","0","47.0370432000","15.4783312000"
"greenriversupercharger","supercharger","standard charger","","","0","38.9935770000","-110.1405130000"
"greenwichnorthsupercharger","supercharger","standard charger","","","0","41.0415380000","-73.6716610000"
"greenwichsouthsupercharger","supercharger","standard charger","","","0","41.0405550000","-73.6734450000"
"hagerstownsupercharger","supercharger","standard charger","","","0","39.6058590000","-77.7333240000"
"hamburg","store","service","","","0","53.6683462000","9.9923687000"
"hangzhouxiachengsupercharger","supercharger","standard charger","","","0","30.3136880000","120.1646020000"
"hayssupercharger","supercharger","standard charger","","","0","38.9004261100","-99.3185626400"
"highlandpark","store","service","supercharger","standard charger","0","42.1742546000","-87.8161958000"
"hohenwarslebensupercharger","supercharger","standard charger","","","0","52.1745370000","11.4930010000"
"holbrooksupercharger","supercharger","standard charger","","","0","34.9229620000","-110.1455580000"
"hopewellcentresupercharger","supercharger","standard charger","","","0","22.2744950000","114.1714290000"
"houstongalleria","store","standard charger","","","0","29.7374320000","-95.4634470000"
"huntsvillesupercharger","supercharger","standard charger","","","0","30.7161580000","-95.5659440000"
"jacksonville","store","","","","0","30.2532099000","-81.5256754000"
"jettingensupercharger","supercharger","standard charger","","","0","48.4110540000","10.4404200000"
"jfksupercharger","supercharger","standard charger","","","0","40.6631900000","-73.7931920000"
"jiadingsupercharger","supercharger","standard charger","","","0","31.2796900000","121.1676600000"
"kaitaksupercharger","supercharger","standard charger","","","0","22.3069890000","114.2126480000"
"kamensupercharger","supercharger","standard charger","","","0","51.5701950000","7.6752670000"
"karlstadsupercharger","supercharger","standard charger","","","0","59.3814820000","13.4672940000"
"kingofprussia","store","","","","0","40.0891852000","-75.3931463000"
"kingmansupercharger","supercharger","standard charger","","","0","35.1913310000","-114.0655920000"
"kobenhavnnbredgade","store","","","","0","55.6826470000","12.5886870000"
"lacrossesupercharger","supercharger","standard charger","","","0","43.8790420000","-91.1884280000"
"lasvegas","store","service","standard charger","","0","36.0623870000","-115.2283880000"
"lasvegassupercharger","supercharger","standard charger","","","0","36.1659060000","-115.1386550000"
"liersouthsupercharger","supercharger","standard charger","","","0","59.7662590000","10.2578380000"
"lillehammersupercharger","supercharger","standard charger","","","0","61.1304640000","10.4349180000"
"limonsupercharger","supercharger","standard charger","","","0","39.2693736900","-103.7087172000"
"ljubljanasupercharger","supercharger","standard charger","","","0","46.0520570000","14.4531500000"
"loddekopingesupercharger","supercharger","standard charger","","","0","55.7663990000","12.9906710000"
"lullysupercharger","supercharger","standard charger","","","0","46.8322330000","6.8592690000"
"lusksupercharger","supercharger","standard charger","","","0","42.7562500000","-104.4526700000"
"lutterbergsupercharger","supercharger","standard charger","","","0","51.3709960000","9.6333070000"
"lyngdalsupercharger","supercharger","standard charger","","","0","58.1565200000","7.1029600000"
"macedoniasupercharger","supercharger","standard charger","","","0","41.3136146500","-81.5171092000"
"maconfrsupercharger","supercharger","standard charger","","","0","46.3465530000","4.8501730000"
"madisonsupercharger","supercharger","standard charger","","","0","43.1266900000","-89.3068960000"
"mariettasalesanddelivery","service","","","","0","33.9420850000","-84.5145940000"
"maumeesupercharger","supercharger","standard charger","","","0","41.5783300000","-83.6645930000"
"maustonsupercharger","supercharger","standard charger","","","0","43.7955510000","-90.0593580000"
"middelfartsupercharger","supercharger","standard charger","","","0","55.5107462800","9.7643237290"
"milfordnorthsupercharger","supercharger","standard charger","","","0","41.2458230000","-73.0090590000"
"milfordsouthsupercharger","supercharger","standard charger","","","0","41.2462420000","-73.0105220000"
"minamiaoyama","store","","","","0","35.6704406000","139.7186684000"
"mishawakasupercharger","supercharger","standard charger","","","0","41.7173370000","-86.1886300000"
"mississauga","service","","","","0","43.6473307000","-79.6880432000"
"mitchellsupercharger","supercharger","standard charger","","","0","43.7011290000","-98.0445000000"
"moabsupercharger","supercharger","standard charger","","","0","38.5731220000","-109.5523680000"
"montereyseaside","store","service","supercharger","","0","36.6171150000","-121.8438880000"
"montgomerymall","store","","","","0","39.0238760000","-77.1443520000"
"mtkisco","store","service","","","0","41.2126750000","-73.7274860000"
"munchbergnordsupercharger","supercharger","standard charger","","","0","50.2028720000","11.7765520000"
"munchenblumenstrasse","store","","","","0","48.1331580000","11.5726770000"
"munchenfeldkirchen","service","","","","0","48.1457610000","11.7417800000"
"murdosupercharger","supercharger","standard charger","","","0","43.8869150000","-100.7168870000"
"natickmall","store","","","","0","42.3012393000","-71.3817780000"
"nephisupercharger","supercharger","standard charger","","","0","39.6781110000","-111.8410030000"
"neworleans","service","","","","1","29.9510658000","-90.0715323000"
"newarksupercharger","supercharger","standard charger","","","1","40.7356570000","-74.1723667000"
"nimessupercharger","supercharger","standard charger","","","0","43.8153640000","4.3447210000"
"normalillinoissupercharger","supercharger","standard charger","","","0","40.5085620000","-88.9847380000"
"northparkcenter","store","standard charger","","","0","32.8688248000","-96.7737114000"
"oakbrookcenter","store","","","","0","41.8497614000","-87.9549746000"
"oklahomacity","service","","","","1","35.4675602000","-97.5164276000"
"oldorchard","store","","","","0","42.0569690000","-87.7499730000"
"omaha","service","","","","1","41.2523634000","-95.9979883000"
"oosterhoutsupercharger","supercharger","standard charger","","","0","51.6265730000","4.8698710000"
"oslonorth","store","service","","","0","59.9530260000","10.8876333000"
"paloalto","store","service","standard charger","","0","37.4111630000","-122.1242540000"
"parkmeadows","store","","","","0","39.5610436000","-104.8756401000"
"parkviewgreen","store","","","","0","39.9204100000","116.4502600000"
"pleasantprairiesupercharger","supercharger","standard charger","","","0","42.5187150000","-87.9504280000"
"plymouthsupercharger","supercharger","standard charger","","","0","35.8505870000","-76.7561160000"
"portorangesupercharger","supercharger","standard charger","","","0","29.1085710000","-81.0346030000"
"portstluciesupercharger","supercharger","standard charger","","","0","27.3129830000","-80.4066830000"
"quartzsitesupercharger","supercharger","standard charger","","","0","33.6607840000","-114.2418010000"
"raleigh","store","","","","0","35.9059644000","-78.7469035000"
"randerssupercharger","supercharger","standard charger","","","0","56.4330146800","10.0555836600"
"rapidcitysupercharger","supercharger","standard charger","","","0","44.1056010000","-103.2125690000"
"regensburgostsupercharger","supercharger","standard charger","","","0","48.9946938400","12.1506940000"
"rhudensupercharger","supercharger","standard charger","","","0","51.9472030000","10.1404770000"
"richfieldsupercharger","supercharger","standard charger","","","0","38.7879900000","-112.0851730000"
"ritzvillesupercharger","supercharger","standard charger","","","1","47.1273723000","-118.3799751000"
"rockfordsupercharger","supercharger","standard charger","","","0","42.2438930000","-88.9788950000"
"rocklin","store","service","supercharger","standard charger","0","38.8005370000","-121.2104850000"
"rockvilleservice","service","","","","0","39.1054008000","-77.1508950000"
"rockymountsupercharger","supercharger","standard charger","","","0","35.9729040000","-77.8468450000"
"rosevillesupercharger","supercharger","standard charger","","","0","38.7712080000","-121.2661490000"
"salinasupercharger","supercharger","standard charger","","","0","38.8773837600","-97.6187150900"
"sanantoniodominion","store","service","","","0","29.6552760000","-98.6263690000"
"sanjuancapistranosupercharger","supercharger","standard charger","","","0","33.4985380000","-117.6630900000"
"sanmarcossupercharger","supercharger","standard charger","","","0","29.8277070000","-97.9796850000"
"sandanesupercharger","supercharger","standard charger","","","0","61.7782403100","6.2132417120"
"santabarbara","store","service","","","0","34.4336260000","-119.7454100000"
"santanarow","store","","","","0","37.3224530000","-121.9479540000"
"santeesupercharger","supercharger","standard charger","","","0","33.4858580000","-80.4757630000"
"savannahsupercharger","supercharger","standard charger","","","0","32.1358850000","-81.2128530000"
"seattlesodo","service","standard charger","","","0","47.5931308000","-122.3262856000"
"seattlewestlake","store","","","","0","47.6230721000","-122.3388407000"
"shorthills","store","","","","0","40.7411850000","-74.3633650000"
"silverthornesupercharger","supercharger","standard charger","","","0","39.6314670000","-106.0708180000"
"sollisupercharger","supercharger","standard charger","","","0","59.3242920000","10.9544480000"
"somersetsupercharger","supercharger","standard charger","","","0","40.0175170000","-79.0771200000"
"springfieldsupercharger","supercharger","standard charger","","","0","44.0826070000","-123.0374580000"
"stantonsupercharger","supercharger","standard charger","","","0","47.1301370000","10.2692310000"
"staugustinesupercharger","supercharger","standard charger","","","0","29.9242860000","-81.4160180000"
"stgallen","store","","","","0","47.4179284000","9.3643968000"
"stjosephsupercharger","supercharger","standard charger","","","0","42.0563570000","-86.4563520000"
"stavanger","store","service","","","0","58.8876860000","5.7059780000"
"stuttgart","store","service","","","0","48.8270680000","9.1000240000"
"sunnyvale","store","service","","","0","37.3575290000","-122.0200060000"
"syosset","service","supercharger","standard charger","","0","40.7999000000","-73.5152000000"
"tampa","service","","","","0","27.9500172000","-82.3543621000"
"thecrystalsupercharger","supercharger","standard charger","","","0","51.5077832700","0.0156141820"
"thedomain","store","standard charger","","","0","30.4032208000","-97.7251790000"
"tiftonsupercharger","supercharger","standard charger","","","0","31.4488470000","-83.5322100000"
"tmltower","store","","","","0","22.3744170000","114.1057500000"
"topanga","store","standard charger","","","0","34.1911359000","-118.6024654000"
"toronto","store","service","supercharger","standard charger","0","43.7405008000","-79.3217339000"
"torrance","service","","","","0","33.8113302000","-118.3317427000"
"triadelphiasupercharger","supercharger","standard charger","","","0","40.0613960000","-80.6024000000"
"trondheim","store","","","","0","63.4405710000","10.4625890000"
"tysonscorner","store","standard charger","","","0","38.9179586000","-77.2217556000"
"uddevallasupercharger","supercharger","standard charger","","","0","58.3516900000","11.8115600000"
"universitytownecentre","store","","","","0","32.8707200000","-117.2111400000"
"vannuys","service","standard charger","","","0","34.1963208000","-118.4932837000"
"vinjesupercharger","supercharger","standard charger","","","0","59.5701310000","7.9925510000"
"washingtonsquare","store","","","","0","45.4510060000","-122.7824800000"
"watertown","service","standard charger","","","0","42.3668800000","-71.2039760000"
"westlosangelessantamonicablvd","service","","","","0","34.0475260000","-118.4455930000"
"westpalmbeach","store","service","supercharger","standard charger","0","26.7781155000","-80.1091072000"
"wickenburgsupercharger","supercharger","standard charger","","","0","33.9702810000","-112.7315030000"
"wilnsdorfsupercharger","supercharger","standard charger","","","0","50.8168730000","8.0857600000"
"winterthur","store","service","","","0","47.4962891000","8.6981642000"
"woodbridgesupercharger","supercharger","standard charger","","","1","40.5575986000","-74.2846022000"
"worthingtonsupercharger","supercharger","standard charger","","","0","43.6338500000","-95.5956470000"
"yumasupercharger","supercharger","standard charger","","","0","32.7266860000","-114.6190930000"
"zevenaarsupercharger","supercharger","standard charger","","","0","51.9407260000","6.0817930000"
"yorkdale","store","standard charger","","","0","43.7247752000","-79.4553801000"
"aspoyasupercharger","supercharger","standard charger","","","0","63.0115110000","7.9759110000"
"brussels","store","","","","0","50.8358250000","4.3562500000"
"egerkingensupercharger","supercharger","standard charger","","","0","47.3265235000","7.8048088000"
"liernorthsupercharger","supercharger","standard charger","","","0","59.7708328000","10.2621389000"
"london","store","supercharger","standard charger","","0","51.5078880000","-0.2219720000"
"muhldorfsupercharger","supercharger","standard charger","","","0","48.2725284000","12.5503100000"
"narbonnesupercharger","supercharger","standard charger","","","0","43.1685194000","2.9850479000"
"nivellessud","supercharger","standard charger","","","0","50.5883964000","4.3073880000"
"sanrafael","service","standard charger","","","0","37.9631390000","-122.5153920000"
"satteldorfsupercharger","supercharger","standard charger","","","0","49.1818243000","10.0683560000"
"thedallessupercharger","supercharger","standard charger","","","0","45.6119410000","-121.2082490000"
"pasadena","store","","","","0","34.1460088000","-118.1529974000"
"kastrup","service","","","","0","55.6144380000","12.6135240000"
"euvensesteenweg","store","service","","","0","50.8712310000","4.4648110000"
"dc482","destination charger","","","","0","33.8011160000","-116.5400610000"
"dc390","destination charger","","","","0","44.4785780000","-88.0530610000"
"dc332","destination charger","","","","0","42.3339740000","-83.0430690000"
"dc260","destination charger","","","","0","39.4897200000","-119.7956220000"
"dc183","destination charger","","","","0","34.4350650000","-119.9202360000"
"dc210","destination charger","","","","0","42.9565150000","-71.5086560000"
"dc166","destination charger","","","","0","36.1112380000","-115.1732450000"
"dc313","destination charger","","","","0","26.3399680000","-80.0784010000"
"dc327","destination charger","","","","0","36.7318870000","-108.1998820000"
"dc176","destination charger","","","","0","39.3243490000","-120.1693760000"
"dc723","destination charger","","","","0","43.6017180000","-89.7603140000"
"dc199","destination charger","","","","0","44.9508120000","-89.6632640000"
"dc259","destination charger","","","","0","44.9761510000","-93.2692780000"
"dc211","destination charger","","","","0","32.7864130000","-96.7954730000"
"dc271","destination charger","","","","0","35.5689830000","-121.1052610000"
"dc191","destination charger","","","","0","37.9370180000","-107.8178700000"
"dc207","destination charger","","","","0","41.8934990000","-87.6254980000"
"dc215","destination charger","","","","0","34.0728830000","-118.3896180000"
"dc171","destination charger","","","","0","47.6076510000","-122.3394180000"
"dc263","destination charger","","","","0","38.6337160000","-90.1839860000"
"dc188","destination charger","","","","0","36.0898450000","-115.1731880000"
"dc309","destination charger","","","","0","50.1199090000","-122.9438140000"
"dc185","destination charger","","","","0","34.4165920000","-119.6415750000"
"dc206","destination charger","","","","0","42.6102380000","-88.4060310000"
"dc174","destination charger","","","","0","38.9552860000","-119.9433030000"
"dc288","destination charger","","","","0","43.8367470000","-88.9468590000"
"dc203","destination charger","","","","0","43.0384370000","-87.9175600000"
"dc198","destination charger","","","","0","44.8566280000","-93.3313660000"
"dc261","destination charger","","","","0","38.6897970000","-75.0749640000"
"dc286","destination charger","","","","0","36.5923870000","-121.8762740000"
"dc187","destination charger","","","","0","33.7214150000","-116.3268110000"
"dc172","destination charger","","","","0","46.0884780000","-118.2271540000"
"dc403","destination charger","","","","0","34.0543710000","-118.4119110000"
"dc192","destination charger","","","","0","43.0419290000","-87.9113330000"
"dc193","destination charger","","","","0","35.0223860000","-110.6960180000"
"dc278","destination charger","","","","0","34.2508000000","-117.1919260000"
"dc214","destination charger","","","","0","49.2875210000","-123.1235210000"
"dc339","destination charger","","","","0","38.6299500000","-90.1918490000"
"dc267","destination charger","","","","0","36.0919930000","-115.1731700000"
"dc266","destination charger","","","","0","36.1012790000","-115.1672900000"
"dc173","destination charger","","","","0","40.6158800000","-111.5090280000"
"dc331","destination charger","","","","0","33.5161020000","-117.7574610000"
"dc337","destination charger","","","","0","41.0687750000","-71.9333610000"
"dc169","destination charger","","","","0","34.4215130000","-119.6405350000"
"dc586","destination charger","","","","0","41.3651630000","-72.0261680000"
"dc281","destination charger","","","","0","38.2962200000","-122.2831380000"
"dc765","destination charger","","","","0","43.3521540000","-70.4727270000"
"dc324","destination charger","","","","0","34.0205300000","-117.9267660000"
"dc268","destination charger","","","","0","50.1141380000","-122.9538150000"
"dc181","destination charger","","","","0","36.2288290000","-121.7648430000"
"dc216","destination charger","","","","0","26.2489650000","-81.7679410000"
"dc321","destination charger","","","","0","33.8457902000","-116.5444318000"
"dc238","destination charger","","","","0","34.4468450000","-119.6237180000"
"dc205","destination charger","","","","0","43.6075500000","-89.7825830000"
"dc219","destination charger","","","","0","34.6129550000","-120.0790100000"
"dc289","destination charger","","","","0","26.5256590000","-82.1917720000"
"dc186","destination charger","","","","0","33.4825730000","-117.7146370000"
"dc434","destination charger","","","","0","43.8718900000","-121.4435300000"
"dc712","destination charger","","","","0","43.2450100000","-70.5939040000"
"dc272","destination charger","","","","0","34.1449740000","-118.3701050000"
"dc182","destination charger","","","","0","35.1658630000","-120.6900500000"
"dc584","destination charger","","","","0","41.3924100000","-70.5066270000"
"dc276","destination charger","","","","0","38.1652570000","-121.1524980000"
"dc365","destination charger","","","","0","33.0190870000","-117.2057730000"
"dc190","destination charger","","","","0","36.1201060000","-115.1726650000"
"dc202","destination charger","","","","0","43.0388730000","-87.9056520000"
"dc189","destination charger","","","","0","36.1143110000","-115.1632390000"
"dc473","destination charger","","","","0","39.0398840000","-94.5913610000"
"dc277","destination charger","","","","0","33.5886710000","-117.8421650000"
"dc488","destination charger","","","","0","49.1239930000","-125.9010960000"
"hjorringsupercharger","supercharger","standard charger","","","0","57.4555446200","10.0406748100"
"neubergsupercharger","supercharger","standard charger","","","0","50.1819530000","9.0066620000"
"duiven","store","service","","","0","51.9650564000","6.0037543000"
"bocatowncenter","store","","","","0","26.3659040000","-80.1343440000"
"villageatcortemadera","store","standard charger","","","0","37.9284100000","-122.5146800000"
"houstonwestchase","service","","","","0","29.7227308000","-95.5509927000"
"keystone","store","standard charger","","","0","39.9140651000","-86.1111523000"
"edenprairie","store","service","standard charger","","0","44.8786790000","-93.3997690000"
"shopsatmissionviejo","store","","","","0","33.5591910000","-117.6704540000"
"brentwood","store","service","supercharger","standard charger","0","35.9691350000","-86.8043010000"
"cathedralcity","service","","","","0","33.7861180000","-116.4751140000"
"parisouest","service","","","","0","48.9228304000","2.3153289000"
"robsonstreet","store","","","","0","49.2829735000","-123.1219663000"
"osloskoyen","store","service","","","0","59.9201620000","10.6882310000"
"universitycity","store","service","","","0","38.6725611000","-90.3598237000"
"vienna","store","service","","","0","48.1574455000","16.3345536000"
"westchester","store","","","","0","41.0312752000","-73.7591855000"
"southhillsupercharger","supercharger","standard charger","","","0","36.7485160000","-78.1035170000"
"sandiego","service","","","","0","32.8915497000","-117.1534240000"
"zurichpelikanstrasse","store","","","","0","47.3719847000","8.5368064000"
"berlin","store","service","","","0","52.3927644000","13.5435943000"
"stockholminfracity","service","","","","0","59.5006239000","17.9268180000"
"genevameyrin","service","","","","0","46.2238125000","6.0521555000"
"tabycentrum","store","","","","0","59.4450190000","18.0713760000"
"tilburgatlasstraat","store","service","","","0","51.6063310000","5.0056210000"
"antwerp","store","service","supercharger","standard charger","0","51.1369400000","4.3771750000"
"londonwest","store","service","supercharger","","0","51.5111657000","-0.4612202000"
"scottsdale","service","","","","0","33.6197930000","-111.9068416000"
"nanjingfullsharesupercharger","supercharger","standard charger","","","0","31.9762000000","118.7607000000"
"hangzhouhuanglong","supercharger","standard charger","","","0","30.2676000000","120.1430000000"
"raleighservice","service","","","","0","35.9038139000","-78.7479810000"
"matogugeussupercharger","supercharger","standard charger","","","0","48.9920010000","4.2452830000"
"beijingyizhuang","store","service","supercharger","standard charger","0","39.7997700000","116.5178250000"
"shenzhenlonghua","store","service","supercharger","standard charger","0","22.6189000000","114.0548200000"
"dusseldorf","store","service","","","0","51.1639920000","6.8519380000"
"lakecitysupercharger","supercharger","standard charger","","","0","30.1814050000","-82.6796050000"
"amsterdamhooftstraat","store","","","","0","52.3607810000","4.8828400000"
"edisonsupercharger","supercharger","standard charger","","","0","40.5445950000","-74.3341130000"
"zwollesupercharger","supercharger","standard charger","","","0","52.5313750000","6.1572790000"
"dc177","destination charger","","","","0","37.4337400000","-122.4412480000"
"dc178","destination charger","","","","0","37.7867100000","-122.4028270000"
"dc208","destination charger","","","","0","35.4687480000","-97.5141840000"
"dc217","destination charger","","","","0","39.6334100000","-106.5242800000"
"dc270","destination charger","","","","0","38.4765490000","-122.3888800000"
"dc283","destination charger","","","","0","40.7169660000","-74.0327690000"
"dc306","destination charger","","","","0","37.8394480000","-120.2291990000"
"dc311","destination charger","","","","0","36.1093530000","-115.1752780000"
"dc325","destination charger","","","","0","30.2590120000","-97.7473520000"
"dc334","destination charger","","","","0","38.9310370000","-74.9237030000"
"dc424","destination charger","","","","0","40.5754560000","-124.2645330000"
"dc425","destination charger","","","","0","33.7594600000","-84.3891740000"
"dc435","destination charger","","","","0","47.6141410000","-122.3363570000"
"dc457","destination charger","","","","0","45.5201920000","-122.6800170000"
"dc498","destination charger","","","","0","41.5555990000","-70.6203140000"
"dc510","destination charger","","","","0","34.0419630000","-118.2566070000"
"dc538","destination charger","","","","0","36.1525860000","-86.7970590000"
"dc550","destination charger","","","","0","45.5136190000","-122.6806760000"
"dc625","destination charger","","","","0","39.2401010000","-119.9419800000"
"dc648","destination charger","","","","0","39.5631860000","-74.2391330000"
"dc807","destination charger","","","","0","32.3127150000","-110.9121000000"
"dc1109","destination charger","","","","0","26.3408760000","-80.0718500000"
"dc1213","destination charger","","","","0","36.1234160000","-115.1704990000"
"dc530","destination charger","","","","0","46.9167720000","-113.4345510000"
"canarywharfsupercharger","supercharger","standard charger","","","0","51.5043510000","-0.0156920000"
"truckeesupercharger","supercharger","standard charger","","","1","39.3279620000","-120.1832533000"
"irschenbergsupercharger","supercharger","standard charger","","","0","47.8268300000","11.8980900000"
"dc316","destination charger","","","","0","47.6565780000","-117.4244140000"
"dc317","destination charger","","","","0","47.6563060000","-117.4234870000"
"dc373","destination charger","","","","0","48.4771240000","-123.5312030000"
"dc504","destination charger","","","","0","36.5975030000","-121.8927850000"
"dc636","destination charger","","","","0","44.1970940000","-73.3622380000"
"dc646","destination charger","","","","0","41.6312650000","-70.5943470000"
"dc1067","destination charger","","","","0","40.5132210000","-121.8123300000"
"dc1434","destination charger","","","","0","38.6885760000","-122.9467830000"
"dc1526","destination charger","","","","0","47.6572470000","-117.4239460000"
"dc1527","destination charger","","","","0","43.7471620000","-111.1114740000"
"dc1528","destination charger","","","","0","35.1466130000","-120.6454440000"
"chengduyanlordsupercharger","supercharger","standard charger","","","0","30.6515990000","104.0670220000"
"kogesupercharger","supercharger","standard charger","","","0","55.4893650000","12.1629540000"
"salzburgsupercharger","supercharger","standard charger","","","0","47.7266010000","13.0604630000"
"tokyosupercharger","supercharger","standard charger","","","1","35.6855320000","139.7673720000"
"yokohama","service","supercharger","standard charger","","0","35.4256640000","139.5374780000"
"chattanoogasupercharger","supercharger","standard charger","","","0","35.0386440000","-85.1959300000"
"metzsupercharger","supercharger","standard charger","","","0","49.2164140000","6.1707910000"
"dc170","destination charger","","","","0","49.1950567000","-123.1239313000"
"dc201","destination charger","","","","0","20.6791160000","-156.4412870000"
"dc221","destination charger","","","","0","41.1377420000","-81.5472820000"
"dc326","destination charger","","","","0","49.2630890000","-123.1375860000"
"dc307","destination charger","","","","0","44.5098000000","-89.4071000000"
"dc673","destination charger","","","","0","35.4664450000","-83.9200150000"
"dc371","destination charger","","","","0","44.0807100000","-121.3052440000"
"dc740","destination charger","","","","0","33.0970380000","-117.2837610000"
"dc1209","destination charger","","","","0","41.5268290000","-90.5812600000"
"dc757","destination charger","","","","0","47.6724680000","-116.7844840000"
"dc1129","destination charger","","","","0","43.5845710000","-71.2169570000"
"dc1136","destination charger","","","","0","36.3741290000","-94.2078050000"
"dc314","destination charger","","","","0","42.7855650000","-88.4056550000"
"dc1681","destination charger","","","","0","41.8967920000","-87.6251420000"
"dornosupercharger","supercharger","standard charger","","","0","45.1477650000","8.9906210000"
"hamburggrossebleichen","store","","","","0","53.5536100000","9.9905707000"
"dc1717","destination charger","","","","0","42.1033210000","-75.8937540000"
"dc582","destination charger","","","","0","24.5607830000","-81.8065180000"
"dc1071","destination charger","","","","0","33.0885070000","-96.8393270000"
"dc483","destination charger","","","","0","39.1030880000","-84.5120570000"
"jungsupercharger","supercharger","standard charger","","","0","58.3279162000","13.1327222000"
"alvdalsupercharger ","supercharger","standard charger","","","0","62.1148480000","10.6163980000"
"muckesupercharger","supercharger","standard charger","","","0","50.6454280000","8.9899167000"
"brandonsupercharger","supercharger","standard charger","","","0","27.9406650000","-82.3235250000"
"archampssupercharger","supercharger","standard charger","","","0","46.1369161000","6.1243056000"
"senlissupercharger","supercharger","standard charger","","","0","49.2086780000","2.6066820000"
"edinburghsupercharger","supercharger","standard charger","","","0","55.9453606000","-3.3666667000"
"readingsupercharger","supercharger","standard charger","","","0","51.4205960000","-0.9880240000"
"dc1130","destination charger","","","","0","43.2011589000","-71.5442280000"
"dc1158","destination charger","","","","0","34.0183110000","-118.5010670000"
"dc223","destination charger","","","","0","39.7463680000","-104.9984390000"
"dc393","destination charger","","","","0","34.1518440000","-118.8046430000"
"dc269","destination charger","","","","0","47.7328640000","-122.1471960000"
"dc299","destination charger","","","","0","34.4382040000","-119.2546090000"
"dc455","destination charger","","","","0","45.5209868000","-122.6877048000"
"dc275","destination charger","","","","0","38.4360680000","-122.7198600000"
"dc447","destination charger","","","","0","29.7797741000","-95.5616562000"
"dc633","destination charger","","","","0","39.1609300000","-120.1452950000"
"dc1157","destination charger","","","","0","33.7668150000","-116.4582600000"
"dc736","destination charger","","","","0","43.5898560000","-110.8260230000"
"dc562","destination charger","","","","0","32.7675371000","-96.7962415000"
"dc453","destination charger","","","","0","33.9841057000","-118.4507094000"
"urmondsupercharger","supercharger","standard charger","","","0","50.9881005000","5.7805974000"
"sarasota","store","","","","0","27.3850890000","-82.4531610000"
"lyndhurst","store","service","","","0","41.5191779000","-81.4937950000"
"londongatwick","store","service","","","0","51.1352130000","-0.1917930000"
"casagrandesupercharger","supercharger","standard charger","","","0","32.8787730000","-111.6816940000"
"tourssupercharger","supercharger","standard charger","","","0","47.4073250000","0.7448270000"
"lagansupercharger","supercharger","standard charger","","","0","57.0289560000","14.0147440000"
"lafayettesupercharger","supercharger","standard charger","","","0","40.4167070000","-86.8140450000"
"londontowersupercharger","supercharger","standard charger","","","0","51.5063410000","-0.0727700000"
"cordeslakessupercharger","supercharger","standard charger","","","0","34.3275300000","-112.1184600000"
"topekasupercharger","supercharger","standard charger","","","0","39.0443940000","-95.7602260000"
"beckenriedsupercharger","supercharger","standard charger","","","0","46.9710730000","8.4590730000"
"dc1160","destination charger","","","","0","32.7806540000","-79.9323520000"
"dc528","destination charger","","","","0","40.1006340000","-80.6616550000"
"dc438","destination charger","","","","0","33.5610230000","-79.0461930000"
"dc1523","destination charger","","","","0","34.0303200000","-118.4818600000"
"dc1135","destination charger","","","","0","38.2567817000","-85.7617756000"
"dc456","destination charger","","","","0","47.2505770000","-122.4399470000"
"dc496","destination charger","","","","0","44.9803577000","-93.2633657000"
"dc764","destination charger","","","","0","45.7115478000","-121.5526164000"
"dc1708","destination charger","","","","0","37.7860410000","-80.3079480000"
"dc253","destination charger","","","","0","29.4221610000","-98.4845520000"
"dc647","destination charger","","","","0","38.3935452000","-122.6930142000"
"dc715","destination charger","","","","0","42.3509380000","-71.0652645000"
"dc1172","destination charger","","","","0","40.6221159000","-111.4909371000"
"dc1466","destination charger","","","","0","40.3000910000","-76.6896676000"
"dc426","destination charger","","","","0","39.2674200000","-120.1275040000"
"dc568","destination charger","","","","0","38.9599005000","-119.9445238000"
"dc754","destination charger","","","","0","43.6906630000","-79.6170200000"
"dc1079","destination charger","","","","0","37.6494700000","-118.9866810000"
"dc618","destination charger","","","","0","33.8453770000","-84.3686270000"
"dc1617","destination charger","","","","0","36.5018960000","-121.9374874000"
"dc560","destination charger","","","","0","32.8963470000","-96.9628380000"
"dc561","destination charger","","","","0","33.0889411000","-96.8062995000"
"atlantadecatur","service","supercharger","standard charger","","0","33.7931980000","-84.2853940000"
"atlantalenoxsquare","store","","","","0","33.8478480000","-84.3636020000"
"montrealferrier","store","service","","","0","45.4961850000","-73.6587930000"
"bigtimbersupercharger","supercharger","standard charger","","","0","45.8362600000","-109.9434100000"
"bozemansupercharger","supercharger","standard charger","","","0","45.7000700000","-111.0632900000"
"orangesupercharger","supercharger","standard charger","","","0","44.1121662000","4.8517500000"
"bristolsupercharger","supercharger","standard charger","","","0","51.5266939000","-2.5998056000"
"sagamorebeachsupercharger","supercharger","standard charger","","","0","41.7811950000","-70.5402890000"
"maienfeldsupercharger","supercharger","standard charger","","","0","47.0039650000","9.5258090000"
"chongqingfortuneplazasupercharger","supercharger","standard charger","","","0","29.6080090000","106.5094490000"
"chengduyintaisupercharger","supercharger","standard charger","","","0","30.5857330000","104.0686030000"
"nanjinghuabosupercharger","supercharger","standard charger","","","0","31.9741670000","118.7750680000"
"changshafvsupercharger","supercharger","standard charger","","","0","28.3479870000","112.9795300000"
"changshahopeskyhotelsupercharger","supercharger","standard charger","","","0","28.1126370000","112.9957250000"
"shenyanghuafusupercharger","supercharger","standard charger","","","0","41.8113840000","123.4366100000"
"dalianfishermanswharfsupercharger","supercharger","standard charger","","","0","38.8763900000","121.6857100000"
"shenzhenbaysupercharger","supercharger","standard charger","","","0","22.5197150000","113.9500880000"
"missoulasupercharger","supercharger","standard charger","","","0","46.9143750000","-114.0319240000"
"hengersbergsupercharger","supercharger","standard charger","","","0","48.7654840000","13.0466550000"
"indianapolissupercharger","supercharger","standard charger","","","0","39.7022380000","-86.0795900000"
"dc232","destination charger","","","","0","39.2408830000","-120.0565400000"
"dc282","destination charger","","","","0","39.6419040000","-106.3731180000"
"dc681","destination charger","","","","0","39.1888210000","-106.8211680000"
"dc2167","destination charger","","","","0","43.0367000000","-88.1922080000"
"dc1202","destination charger","","","","0","38.5042170000","-122.7701790000"
"dc1830","destination charger","","","","0","40.7138700000","-74.0413800000"
"dc1454","destination charger","","","","0","35.2292950000","-82.3352680000"
"dc974","destination charger","","","","0","33.9460820000","-118.3842664000"
"dc1153","destination charger","","","","0","38.4024690000","-122.3611040000"
"dc675","destination charger","","","","0","39.3154958000","-123.7992050000"
"dc2266","destination charger","","","","0","32.8802400000","-96.7685680000"
"elverumsupercharger","supercharger","standard charger","","","0","60.8841730000","11.5408020000"
"setermoensupercharger","supercharger","standard charger","","","0","68.8600640000","18.3466260000"
"genevacoursderive","store","","","","0","46.2011615000","6.1535129000"
"ocalasupercharger","supercharger","standard charger","","","0","29.1409810000","-82.1939380000"
"saintessupercharger","supercharger","standard charger","","","0","45.7500120000","-0.6617250000"
"denversupercharger","supercharger","standard charger","","","0","39.7751200000","-104.7946480000"
"wernbergkoblitzsupercharger","supercharger","standard charger","","","0","49.5326939000","12.1348611000"
"countryclubhillssupercharger","supercharger","standard charger","","","0","41.5852060000","-87.7211140000"
"salisburysupercharger","supercharger","standard charger","","","0","38.4016000000","-75.5648900000"
"lauenausupercharger","supercharger","standard charger","","","0","52.2789960000","9.3508400000"
"leegardenssupercharger","supercharger","standard charger","","","0","22.2785270000","114.1848580000"
"tokyokotokusupercharger","supercharger","standard charger","","","0","35.6176420000","139.7769120000"
"wuxinanchangsupercharger","supercharger","standard charger","","","0","31.5542010000","120.3092140000"
"innhavetsupercharger","supercharger","standard charger","","","0","67.9624270000","15.9295260000"
"dc531","destination charger","","","","0","46.8162360000","-71.2034310000"
"dc532","destination charger","","","","0","43.6456310000","-79.3908570000"
"dc534","destination charger","","","","0","45.5026380000","-73.5742510000"
"dc752","destination charger","","","","0","46.7688820000","-71.2870550000"
"dc753","destination charger","","","","0","45.4407690000","-73.4391850000"
"dc1179","destination charger","","","","0","45.4928052000","-73.5570462000"
"dc204","destination charger","","","","0","34.6153710000","-83.7019700000"
"dc544","destination charger","","","","0","44.3035710000","-74.3302780000"
"dc1813","destination charger","","","","0","33.7952160000","-116.5015110000"
"dc1131","destination charger","","","","0","42.7052817000","-73.1906598000"
"dc413","destination charger","","","","0","33.7866470000","-84.3855330000"
"dc641","destination charger","","","","0","40.8043210000","-74.2376430000"
"dc1669","destination charger","","","","0","37.6026450000","-122.3710000000"
"dc2356","destination charger","","","","0","39.5278800000","-119.8137540000"
"dc1637","destination charger","","","","0","44.5192603000","-85.9906554000"
"paramusroute17","store","service","supercharger","standard charger","0","40.9574790000","-74.0741910000"
"daytonsupercharger","supercharger","standard charger","","","0","39.8587020000","-84.2770270000"
"shenzhenfutiansupercharger","supercharger","standard charger","","","0","22.5186720000","114.0737360000"
"xiangaoxin","store","service","","","0","34.2000065000","108.9176548000"
"gavlesupercharger","supercharger","standard charger","","","0","60.6484370000","17.1203920000"
"hirschbergsupercharger","supercharger","standard charger","","","0","49.5073820000","8.6374800000"
"warringtonsupercharger","supercharger","standard charger","","","1","53.4174040000","-2.6379220000"
"dc737","destination charger","","","","0","34.0666534000","-118.4010018000"
"dc1772","destination charger","","","","0","34.2512098000","-111.3217987000"
"dc1997","destination charger","","","","0","35.5765040000","-121.1135290000"
"dc1998","destination charger","","","","0","35.5736830000","-121.1123150000"
"dc1555","destination charger","","","","0","29.7470990000","-95.4507340000"
"dc658","destination charger","","","","0","32.2089885000","-80.6815982000"
"storjordsupercharger","supercharger","standard charger","","","0","66.8141600000","15.4015400000"
"xianyantasupercharger","supercharger","standard charger","","","0","34.2252650000","108.8877770000"
"melbourne","store","service","supercharger","standard charger","0","-37.8319970000","144.9958070000"
"shanghaihongqiao","store","service","supercharger","","0","31.1649910000","121.3304980000"
"krokomsupercharger","supercharger","standard charger","","","0","63.3288500000","14.4303880000"
"rodekrosupercharger","supercharger","standard charger","","","0","55.0673310000","9.3610810000"
"sundsvallsupercharger","supercharger","standard charger","","","0","62.3984660000","17.3390380000"
"rotterdam-driemanssteeweg","store","service","","","0","51.8648840000","4.4570340000"
"turkeylakesupercharger","supercharger","standard charger","","","0","28.5148730000","-81.5001890000"
"ranchocucamongasupercharger","supercharger","standard charger","","","0","34.1135840000","-117.5294270000"
"telegraphbaysupercharger","supercharger","standard charger","","","0","22.2623700000","114.1304870000"
"odeshogsupercharger","supercharger","standard charger","","","0","58.2270740000","14.6682530000"
"busdorfsupercharger","supercharger","standard charger","","","0","54.4777990000","9.5447580000"
"mosjoensupercharger","supercharger","standard charger","","","0","65.8348320000","13.1915920000"
"grongsupercharger","supercharger","standard charger","","","0","64.4647570000","12.3164030000"
"dartfordsupercharger","supercharger","standard charger","","","0","51.4380180000","0.2688450000"
"primmsupercharger","supercharger","standard charger","","","1","35.6123359000","-115.3880456000"
"fortdrumsupercharger","supercharger","standard charger","","","0","27.6008900000","-80.8228600000"
"sollentunasupercharger","supercharger","standard charger","","","0","59.4964980000","17.9243180000"
"maidstonesupercharger","supercharger","standard charger","","","0","51.2862240000","0.5457830000"
"modenasupercharger","supercharger","standard charger","","","0","44.5741190000","10.9811570000"
"exetersupercharger","supercharger","standard charger","","","0","50.6854420000","-3.4488370000"
"qingdaojinmaobaysupercharger","supercharger","standard charger","","","0","36.0645640000","120.3002910000"
"tystbergasupercharger","supercharger","standard charger","","","0","58.9181560000","17.3679870000"
"buttesupercharger","supercharger","standard charger","","","0","45.9812260000","-112.5071610000"
"linz","store","service","","","0","48.2367413000","14.2405725000"
"stmoritzsupercharger","supercharger","standard charger","","","0","46.4967970000","9.8427200000"
"zhengzhoujoinautoputianstoresupercharger","supercharger","standard charger","","","0","34.7452980000","113.7982070000"
"westhartfordsupercharger","supercharger","standard charger","","","0","41.7226720000","-72.7597170000"
"superiorsupercharger","supercharger","standard charger","","","0","47.1921490000","-114.8889010000"
"losangelessupercharger","supercharger","standard charger","","","0","33.9210630000","-118.3300740000"
"greenvillesupercharger","supercharger","standard charger","","","0","34.8258930000","-82.3069520000"
"dc710","destination charger","","","","0","34.1016080000","-118.3258040000"
"dc1214","destination charger","","","","0","26.2514640000","-81.8208000000"
"dc1833","destination charger","","","","0","33.9619830000","-83.3758850000"
"dc1660","destination charger","","","","0","38.7146717000","-75.0824831000"
"dc1324","destination charger","","","","0","37.8053880000","-122.4234180000"
"dc2316","destination charger","","","","0","34.7227520000","-112.0062650000"
"dc566","destination charger","","","","0","39.6415870000","-106.3782030000"
"dc621","destination charger","","","","0","33.8489200000","-84.3660700000"
"dc1069","destination charger","","","","0","25.7654138000","-80.1851384000"
"dc1777","destination charger","","","","0","49.3247253000","-119.5460569000"
"dc264","destination charger","","","","0","39.5285650000","-119.8152710000"
"dc631","destination charger","","","","0","38.4683160000","-122.4049020000"
"dc975","destination charger","","","","0","33.7233010000","-116.3295380000"
"dc1143","destination charger","","","","0","42.9777294000","-70.9542299000"
"dc1144","destination charger","","","","0","43.3571986000","-70.4743118000"
"dc1147","destination charger","","","","0","43.0996210000","-72.7036059000"
"dc1810","destination charger","","","","0","25.7908230000","-80.1291160000"
"dc2064","destination charger","","","","0","33.7078720000","-78.8616830000"
"dc2754","destination charger","","","","0","36.5541460000","-86.2379290000"
"dc2278","destination charger","","","","0","34.8637690000","-111.7815630000"
"dc613","destination charger","","","","0","39.1866234000","-106.8175696000"
"dc463","destination charger","","","","0","33.5042360000","-111.9692470000"
"dc2177","destination charger","","","","0","35.2625520000","-75.5693610000"
"dc2257","destination charger","","","","0","39.1008925000","-84.5141913000"
"dc258","destination charger","","","","0","43.0727820000","-89.3808750000"
"dc262","destination charger","","","","0","33.9148270000","-84.3558040000"
"dc2354","destination charger","","","","0","36.6198213000","-121.9328597000"
"dc2789","destination charger","","","","0","30.4108140000","-87.6839560000"
"lowernorthshore","store","service","supercharger","standard charger","0","-33.8170210000","151.1913340000"
"nossensupercharger","supercharger","standard charger","","","0","51.0824600000","13.2740880000"
"veronasupercharger","supercharger","standard charger","","","0","45.4123260000","10.9702120000"
"martignysupercharger","supercharger","standard charger","","","0","46.1265950000","7.0609440000"
"achernsupercharger","supercharger","standard charger","","","0","48.6413600000","8.0378070000"
"melbournechadstone","store","","","","0","-37.8860740000","145.0827990000"
"nuremberg-karolinenstrasse","store","","","","0","49.4511690000","11.0736060000"
"toulousesupercharger","supercharger","standard charger","","","0","43.7693340000","1.3613780000"
"herzsprungsupercharger","supercharger","standard charger","","","0","53.0674030000","12.5332270000"
"nancysupercharger","supercharger","standard charger","","","0","48.6382150000","6.1843490000"
"atlantasupercharger","supercharger","standard charger","","","0","33.7938200000","-84.3971300000"
"malsfeldsupercharger","supercharger","standard charger","","","0","51.0871870000","9.4851600000"
"villachsupercharger","supercharger","standard charger","","","0","46.6041640000","13.8691830000"
"northamptonsupercharger","supercharger","standard charger","","","0","52.1857290000","-0.8912700000"
"culvercitysupercharger","supercharger","standard charger","","","0","33.9867650000","-118.3901620000"
"dc1978","destination charger","","","","0","36.5556420000","-121.9245630000"
"dc1435","destination charger","","","","0","36.9506523000","-121.8769721000"
"dc399","destination charger","","","","0","34.9149020000","-111.8540540000"
"dc1807","destination charger","","","","0","32.8644720000","-96.5415110000"
"dc2276","destination charger","","","","0","33.1827870000","-97.1000660000"
"dc229","destination charger","","","","0","38.4900040000","-122.8834770000"
"dc609","destination charger","","","","0","32.3009060000","-90.1795560000"
"dc322","destination charger","","","","0","35.6510500000","-120.7414890000"
"dc2245","destination charger","","","","0","49.6693810000","-124.9844950000"
"dc1168","destination charger","","","","0","45.8905640000","-123.9628750000"
"dc1916","destination charger","","","","0","28.0018790000","-82.7277940000"
"dc468","destination charger","","","","0","35.6837680000","-105.9380170000"
"dc1322","destination charger","","","","0","37.7924958000","-122.4100354000"
"dc2388","destination charger","","","","0","30.0845470000","-90.4465630000"
"dc2847","destination charger","","","","0","25.9853190000","-81.7239360000"
"dc348","destination charger","","","","0","30.3272668000","-97.9254155000"
"dc1048","destination charger","","","","0","39.2846200000","-76.6136710000"
"dc1821","destination charger","","","","0","39.4804860000","-106.0669080000"
"dc808","destination charger","","","","0","50.1884100000","-119.3884230000"
"dc2018","destination charger","","","","0","43.0792267000","-79.0826094000"
"dc2401","destination charger","","","","0","37.1100279000","-113.5799972000"
"dc3411","destination charger","","","","0","44.1869150000","-72.8781250000"
"dc1658","destination charger","","","","0","33.8454512000","-84.3600387000"
"dc1211","destination charger","","","","0","34.1550113000","-118.8250613000"
"dc1199","destination charger","","","","0","47.9034470000","-91.8491410000"
"dc1775","destination charger","","","","0","31.7340280000","-95.6294049000"
"dc2017","destination charger","","","","0","43.3591980000","-79.7949000000"
"dc2027","destination charger","","","","0","51.2683690000","-114.0044690000"
"dc2366","destination charger","","","","0","47.0739523000","-70.9058124000"
"dc2403","destination charger","","","","0","34.0963159000","-118.3727563000"
"aksdalsupercharger","supercharger","standard charger","","","0","59.4230160000","5.4428720000"
"sulzvohringensupercharger","supercharger","standard charger","","","0","48.3431150000","8.6626120000"
"dc761","destination charger","","","","0","34.0919850000","-118.3777660000"
"dc2689","destination charger","","","","0","44.1241630000","-72.8825960000"
"dc1803","destination charger","","","","0","33.9947590000","-117.8914930000"
"dc2022","destination charger","","","","0","48.3407230000","-124.6629240000"
"dc2023","destination charger","","","","0","48.3334791000","-124.6593683000"
"dc2296","destination charger","","","","0","40.0016160000","-105.2579820000"
"kansascitymanchester","service","","","","0","39.0596800000","-94.5005350000"
"guangzhouhuananautotradesupercharger","supercharger","standard charger","","","0","23.0705090000","113.3129500000"
"xuzhounewcenturygrandhotelsupercharger","supercharger","standard charger","","","0","34.2450640000","117.1344470000"
"guangzhoushenglinbuildingsupercharger","supercharger","standard charger","","","0","22.8475570000","113.4527760000"
"jinantimesheadquarterbasesupercharger","supercharger","standard charger","","","0","36.7092060000","116.9566350000"
"kobeportislandgolfcoursesupercharger","supercharger","standard charger","","","0","34.6570310000","135.2260480000"
"kamloopssupercharger","supercharger","standard charger","","","0","50.6552570000","-120.3683070000"
"lakecharlessupercharger","supercharger","standard charger","","","0","30.1990710000","-93.2487820000"
"limasupercharger","supercharger","standard charger","","","0","40.7266680000","-84.0719320000"
"elcentrosupercharger","supercharger","standard charger","","","0","32.7608370000","-115.5324860000"
"beijinghaidianbwsupercharger","supercharger","standard charger","","","0","39.9510880000","116.2818370000"
"beijinghaidiancscsupercharger","supercharger","standard charger","","","0","39.9121540000","116.2759570000"
"cangzhoukinglioninternationalhotelsupercharger","supercharger","standard charger","","","0","38.3046170000","116.8133190000"
"guangzhouzhongsengourmet100supercharger","supercharger","standard charger","","","0","23.1410280000","113.3759640000"
"zhoushanhaizhongzhouinternationalhotelsupercharger","supercharger","standard charger","","","0","29.9667730000","122.3161210000"
"revelstokesupercharger","supercharger","standard charger","","","0","51.0095940000","-118.2188570000"
"leipzig","store","","","","0","51.3447200000","12.3730400000"
"auburnalsupercharger","supercharger","standard charger","","","0","32.6278370000","-85.4451050000"
"auburnmasupercharger","supercharger","standard charger","","","0","42.2037340000","-71.8330590000"
"shanghaiqingpumegamillssupercharger","supercharger","standard charger","","","0","31.1507780000","121.2301950000"
"ningbojiangdongcultureplazasupercharger","supercharger","standard charger","","","0","29.8563800000","121.6185550000"
"brentcross","store","","","","0","51.5762930000","-0.2236380000"
"manchesterknutsford","store","","","","0","53.3052846000","-2.3754453000"
"springfieldilsupercharger","supercharger","standard charger","","","0","39.7488680000","-89.6711900000"
"defuniakspringssupercharger","supercharger","standard charger","","","0","30.7207020000","-86.1166770000"
"cangzhouyunheyihehotelsupercharger","supercharger","standard charger","","","0","38.2768260000","116.8126680000"
"dc662","destination charger","","","","0","39.4971810000","-119.8002250000"
"dc292","destination charger","","","","0","41.4906920000","-72.0912770000"
"dc731","destination charger","","","","0","44.3581470000","-80.5452930000"
"dc973","destination charger","","","","0","46.6115680000","-112.0200130000"
"dc767","destination charger","","","","0","42.3521350000","-71.0686730000"
"dc701","destination charger","","","","0","45.4999210000","-73.5784760000"
"dc295","destination charger","","","","0","40.0934590000","-88.2377830000"
"dc1089","destination charger","","","","0","35.1103730000","-106.5677521000"
"dc1800","destination charger","","","","0","37.5321810000","-122.0002130000"
"dc2735","destination charger","","","","0","42.4665965000","-92.3192290000"
"dc1579","destination charger","","","","0","47.6978563000","-116.8086523000"
"dc1917","destination charger","","","","0","34.8540430000","-120.3708130000"
"dc2086","destination charger","","","","0","45.5123866000","-122.6756475000"
"dc2704","destination charger","","","","0","35.9817800000","-83.6133450000"
"dc635","destination charger","","","","0","37.0144000000","-111.6120004000"
"dc1899","destination charger","","","","0","42.2411660000","-83.7351750000"
"dc801","destination charger","","","","0","37.6828374000","-97.3412290000"
"dc1893","destination charger","","","","0","33.1250370000","-117.2081680000"
"dc1647","destination charger","","","","0","33.8358020000","-118.3499950000"
"dc3906","destination charger","","","","0","30.6529490000","-96.4044840000"
"dc2710","destination charger","","","","0","48.8449140000","-123.2514630000"
"dc1877","destination charger","","","","0","30.4451860000","-84.2846430000"
"dc2691","destination charger","","","","0","38.5540960000","-86.6201690000"
"dc3924","destination charger","","","","0","40.0550410000","-74.1339370000"
"dc2033","destination charger","","","","0","35.1493290000","-120.6513500000"
"dc1774","destination charger","","","","0","36.8086559000","-119.7810627000"
"brattleborovtsupercharger","supercharger","standard charger","","","0","42.8384430000","-72.5657980000"
"hooksettsbnhsupercharger","supercharger","standard charger","","","0","43.1090660000","-71.4777680000"
"needlescasupercharger","supercharger","standard charger","","","0","34.8508350000","-114.6243290000"
"grovecityohsupercharger","supercharger","standard charger","","","0","39.8772530000","-83.0634480000"
"macongasupercharger","supercharger","standard charger","","","0","32.8334850000","-83.6258130000"
"zhuhaiyuanguangsoftwareparksupercharger","supercharger","standard charger","","","0","22.3736470000","113.5614540000"
"brivelagaillardesupercharger","supercharger","standard charger","","","0","45.1672400000","1.4831190000"
"schweitenkirchensupercharger","supercharger","standard charger","","","0","48.5107940000","11.5818930000"
"winchesternortonparksupercharger","supercharger","standard charger","","","0","51.1672500000","-1.3280240000"
"hooksettnbsupercharger","supercharger","standard charger","","","0","43.1100700000","-71.4750650000"
"redondobeachsupercharger","supercharger","standard charger","","","1","33.8491816000","-118.3884078000"
"wichitakssupercharger","supercharger","standard charger","","","0","37.6087800000","-97.3331400000"
"dc2203","destination charger","","","","0","34.6773838000","138.9719247000"
"dc2191","destination charger","","","","0","33.5896170000","130.3956040000"
"dc2111","destination charger","","","","0","36.3580930000","138.5908120000"
"dc2232","destination charger","","","","0","36.8180035000","137.5815367000"
"dc2188","destination charger","","","","0","35.0086860000","135.7878270000"
"dc2190","destination charger","","","","0","35.1854830000","136.8956000000"
"dc2233","destination charger","","","","0","33.8504440000","132.7871270000"
"dc2185","destination charger","","","","0","34.9374440000","139.1261350000"
"dc2186","destination charger","","","","0","34.6970330000","135.1870150000"
"dc1476","destination charger","standard charger","","","0","-37.8094922000","144.9702081000"
"dc2310","destination charger","standard charger","","","0","-38.4720580000","145.9476450000"
"dc2363","destination charger","standard charger","","","0","-35.3122470000","149.1332360000"
"reddeersupercharger","supercharger","standard charger","","","0","52.2518990000","-113.8146590000"
"westwendovernvsupercharger","supercharger","standard charger","","","0","40.7383990000","-114.0589980000"
"batonrougelasupercharger","supercharger","standard charger","","","0","30.4238920000","-91.1546370000"
"kunmingpanlongjunfacentersupercharger","supercharger","standard charger","","","0","25.0633890000","102.7233350000"
"lonepinecasupercharger","supercharger","standard charger","","","0","36.6005900000","-118.0619160000"
"lovelocknvsupercharger","supercharger","standard charger","","","0","40.1794760000","-118.4721350000"
"charlottematthews","store","service","","","0","35.1403200000","-80.7187830000"
"milford","service","","","","0","41.2313760000","-73.0521920000"
"tysonscornertycoroad","store","service","","","0","38.9320000000","-77.2395050000"
"leinstrandklettsupercharger","supercharger","standard charger","","","0","63.3253190000","10.3051370000"
"kingstononsupercharger","supercharger","standard charger","","","0","44.2682120000","-76.5023250000"
"barrieonsupercharger","supercharger","standard charger","","","0","44.3411230000","-79.6789750000"
"elkonvsupercharger","supercharger","standard charger","","","0","40.8363010000","-115.7908590000"
"leedsuksupercharger","supercharger","standard charger","","","0","53.7327740000","-1.5856220000"
"lexingtonkysupercharger","supercharger","standard charger","","","0","38.0179550000","-84.4206640000"
"petalumacasupercharger","supercharger","standard charger","","","0","38.2426760000","-122.6250230000"
"dc3931","destination charger","","","","0","49.1681935000","-121.9537286000"
"dc1149","destination charger","","","","0","26.2476090000","-98.2059170000"
"dc368","destination charger","","","","0","34.4391560000","-119.7042210000"
"dc2416","destination charger","","","","0","28.3237120000","-81.6585650000"
"dc747","destination charger","","","","0","33.7319050000","-111.8529040000"
"dc1190","destination charger","","","","0","32.6948040000","-117.1662150000"
"dc2031","destination charger","","","","0","35.6255530000","-120.6920600000"
"dc1735","destination charger","","","","0","39.6048250000","-106.5154870000"
"dc2006","destination charger","","","","0","46.7881955000","-71.3539628000"
"dc2029","destination charger","","","","0","35.1491060000","-120.6532720000"
"dc2697","destination charger","","","","0","48.4440229000","-123.3674944000"
"dc243","destination charger","","","","0","26.1291470000","-80.1040370000"
"dc2032","destination charger","","","","0","35.1800910000","-120.7354810000"
"dc524","destination charger","","","","0","43.6499370000","-79.3801910000"
"dc2176","destination charger","","","","0","26.1937040000","-80.1702870000"
"dc2802","destination charger","","","","0","33.4658094000","-117.6893800000"
"dc433","destination charger","","","","0","34.0501870000","-118.4603420000"
"dc595","destination charger","","","","0","48.4199482000","-123.2994611000"
"dc666","destination charger","","","","0","41.8868446000","-88.3038036000"
"dc1091","destination charger","","","","0","37.7924420000","-122.4010390000"
"dc2334","destination charger","","","","0","37.7915960000","-122.4103850000"
"dc771","destination charger","","","","0","33.8315330000","-116.5454690000"
"dc1784","destination charger","","","","0","44.0579220000","-121.3120530000"
"dc2386","destination charger","","","","0","37.0888660000","-113.5845240000"
"dc2387","destination charger","","","","0","29.6815640000","-90.7821920000"
"dc2400","destination charger","","","","0","37.1095483000","-113.5765225000"
"dc748","destination charger","","","","0","43.6718530000","-79.3895130000"
"dc1806","destination charger","","","","0","39.2722670000","-123.7891320000"
"dc2692","destination charger","","","","0","38.5682150000","-86.6182990000"
"dc2810","destination charger","","","","0","27.7110000000","-97.3712310000"
"dc291","destination charger","","","","0","38.8838280000","-77.0302470000"
"dc361","destination charger","","","","0","37.7461540000","-119.5743357000"
"dc3917","destination charger","","","","0","36.9697758000","-121.9655326000"
"dc4662","destination charger","","","","0","37.7924960000","-122.3999800000"
"dc2399","destination charger","","","","0","39.8798030000","-83.0455049000"
"dc2736","destination charger","","","","0","48.9904860000","-122.7744470000"
"dc1325","destination charger","","","","0","37.3327794000","-121.8892745000"
"dc1719","destination charger","","","","0","45.3479590000","-75.9181100000"
"dc2000","destination charger","","","","0","47.2385300000","-122.4272130000"
"dc2304","destination charger","","","","0","40.1817150000","-122.2205550000"
"dc2758","destination charger","","","","0","37.8549750000","-121.2193169000"
"dc1478","destination charger","","","","0","25.7727240000","-80.1859980000"
"dc1814","destination charger","","","","0","25.8196360000","-80.1225900000"
"dc2350","destination charger","","","","0","46.7564906000","-71.2937583000"
"dc2396","destination charger","","","","0","43.1126835000","-80.7438781000"
"dc357","destination charger","","","","0","37.8378560000","-122.4798360000"
"dc1169","destination charger","","","","0","37.7849000000","-122.4043000000"
"londonkysupercharger","supercharger","standard charger","","","0","37.1491600000","-84.1138500000"
"goldenbcsupercharger","supercharger","standard charger","","","0","51.3127840000","-116.9745800000"
"montecenerisupercharger","supercharger","standard charger","","","0","46.1391600000","8.9072910000"
"uticanysupercharger","supercharger","standard charger","","","0","43.1138780000","-75.2068570000"
"dc653","destination charger","","","","0","33.7671980000","-118.1919870000"
"dc2155","destination charger","","","","0","39.1867140000","-106.8191640000"
"dc1078","destination charger","","","","0","33.7579980000","-116.3606170000"
"dc279","destination charger","","","","0","30.2653970000","-97.7465660000"
"dc684","destination charger","","","","0","39.1908200000","-106.8194920000"
"dc1796","destination charger","","","","0","40.5740300000","-122.3583230000"
"dc310","destination charger","","","","0","36.5193920000","-121.8067810000"
"dc773","destination charger","","","","0","44.1366260000","-93.2546450000"
"dc2739","destination charger","","","","0","46.0488469000","-73.0904734000"
"dc2786","destination charger","","","","0","49.8915172000","-119.4969177000"
"dc2067","destination charger","","","","0","30.2896250000","-81.3892330000"
"dc1920","destination charger","","","","0","42.6846210000","-121.9730690000"
"dc2280","destination charger","","","","0","49.0287670000","-119.4427400000"
"dc4875","destination charger","","","","0","40.9618980000","-85.3736260000"
"dc4876","destination charger","","","","0","41.0343210000","-85.3599940000"
"dc1181","destination charger","","","","0","44.0248506000","-121.3653404000"
"osakakitakupanasonicsupercharger","supercharger","standard charger","","","0","34.7009410000","135.5107700000"
"shaoxingyuechengtianyuaninternationalbuildingsupercharger","supercharger","standard charger","","","0","30.0000480000","120.6035190000"
"westspringfieldsupercharger","supercharger","standard charger","","","0","42.1309140000","-72.6214350000"
"independencemosupercharger","supercharger","standard charger","","","0","39.0408140000","-94.3692650000"
"dc3997","destination charger","standard charger","","","0","22.3702830000","113.9933950000"
"dc4825","destination charger","standard charger","","","0","22.3688120000","114.0780970000"
"winnemuccanvsupercharger","supercharger","standard charger","","","0","40.9588690000","-117.7465010000"
"dc2129","destination charger","","","","0","30.2830180000","-97.7457360000"
"dc3898","destination charger","","","","0","50.4658502000","-104.6171594000"
"dc4043","destination charger","","","","0","41.4913770000","-73.2251500000"
"dc2418","destination charger","","","","0","38.1743070000","-122.4512740000"
"dc2700","destination charger","","","","0","35.0522970000","-83.1969380000"
"dc2734","destination charger","","","","0","48.7831410000","-122.4840010000"
"dc3973","destination charger","","","","0","29.4265470000","-98.4810860000"
"shamrocksupercharger","supercharger","standard charger","","","0","35.2267650000","-100.2483600000"
"tooeleutsupercharger","supercharger","standard charger","","","0","40.6844660000","-112.2690080000"
"charlottencsupercharger","supercharger","standard charger","","","0","35.3407500000","-80.7657900000"
"calaissupercharger","supercharger","standard charger","","","0","50.9244250000","1.8041400000"
"waldlaubersheimsupercharger","supercharger","standard charger","","","0","49.9240010000","7.8256720000"
"asanesupercharger","supercharger","standard charger","","","0","60.4843450000","5.3759590000"
"dc3965","destination charger","","","","0","30.2519600000","-97.7467250000"
"dc2251","destination charger","","","","0","33.7355620000","-117.0307790000"
"dc2830","destination charger","","","","0","34.0865150000","-118.4456970000"
"dc3457","destination charger","","","","0","33.5286020000","-84.7439710000"
"dc2753","destination charger","","","","0","34.3439030000","-79.4313860000"
"dc2715","destination charger","","","","0","43.2533712000","-79.0682364000"
"dc2803","destination charger","","","","0","34.3923251000","-119.5095392000"
"dc3953","destination charger","","","","0","49.6512660000","-108.4129190000"
"dc4686","destination charger","","","","0","28.0680940000","-80.5576650000"
"dc2779","destination charger","","","","0","30.1516232000","-93.6375554000"
"dc4074","destination charger","","","","0","36.6391043000","-93.2788854000"
"dc679","destination charger","","","","0","36.6008432000","-121.8951335000"
"dc3920","destination charger","","","","0","50.5122160000","-115.9930740000"
"dc4580","destination charger","","","","0","37.6817053000","-113.0755125000"
"dc1826","destination charger","","","","0","47.0987920000","-119.9962040000"
"dc1996","destination charger","","","","0","49.1026810000","-119.5467190000"
"dc2716","destination charger","","","","0","43.2579040000","-79.0771990000"
"coeurdaleneidsupercharger","supercharger","standard charger","","","0","47.7084790000","-116.7942830000"
"canmoreabsupercharger","supercharger","standard charger","","","0","51.1002080000","-115.3591790000"
"mogendorfdesupercharger","supercharger","standard charger","","","0","50.4827200000","7.7502140000"
"councilbluffsiasupercharger","supercharger","standard charger","","","0","41.2209210000","-95.8355790000"
"weatherfordoksupercharger","supercharger","standard charger","","","0","35.5385900000","-98.6601200000"
"dc2722","destination charger","","","","0","34.4206320000","-119.7027480000"
"dc3939","destination charger","","","","0","53.5421516000","-113.5008612000"
"dc4570","destination charger","","","","0","38.6808220000","-123.4292760000"
"dc4761","destination charger","","","","0","41.0180940000","-73.6236590000"
"dc2760","destination charger","","","","0","34.1785380000","-118.8785878000"
"dc3912","destination charger","","","","0","42.5447770000","-83.2158110000"
"dc4753","destination charger","","","","0","43.1799690000","-71.8336274000"
"dc4062","destination charger","","","","0","38.6641820000","-78.4663700000"
"dc1178","destination charger","","","","0","46.2068940000","-74.5967820000"
"dc1588","destination charger","","","","0","32.7762350000","-96.8092810000"
"dc3944","destination charger","","","","0","37.8759690000","-119.8582660000"
"dc4634","destination charger","","","","0","30.7218050000","-81.5478850000"
"dc3934","destination charger","","","","0","48.4222022000","-123.3796262000"
"dc2071","destination charger","","","","0","26.7153270000","-80.0351160000"
"dc1822","destination charger","","","","0","36.1323030000","-115.1576470000"
"dc4620","destination charger","","","","0","45.1902250000","-123.2907020000"
"dc5014","destination charger","","","","0","50.1177000000","-122.9466330000"
"dc3949","destination charger","","","","0","45.2411500000","-123.0697290000"
"dc3957","destination charger","","","","0","49.1997920000","-122.9126030000"
"dc2008","destination charger","","","","0","48.8355410000","-67.5723250000"
"dc2402","destination charger","","","","0","27.9308670000","-82.4834480000"
"dc4704","destination charger","","","","0","38.0435364000","-120.2107225000"
"dc2820","destination charger","","","","0","33.9012530000","-118.3711810000"
"dc2249","destination charger","","","","0","34.5025840000","-82.6486090000"
"santarosanmsupercharger","supercharger","standard charger","","","0","34.9470130000","-104.6479970000"
"ardmoreoksupercharger","supercharger","standard charger","","","0","34.1791060000","-97.1656320000"
"hamburgsupercharger","supercharger","standard charger","","","0","53.4607610000","9.9397780000"
"inyokernsupercharger","supercharger","standard charger","","","0","35.6464510000","-117.8126440000"
"chiyodakupalacehotelsupercharger","supercharger","standard charger","","","0","35.6846560000","139.7612520000"
"comberonsupercharger","supercharger","standard charger","","","0","42.2391160000","-82.5502270000"
"dc3963","destination charger","","","","0","28.3191100000","-98.1136390000"
"dc1871","destination charger","","","","0","34.1012970000","-83.8176540000"
"dc4089","destination charger","","","","0","32.8335800000","-117.1438170000"
"dc1188","destination charger","","","","0","33.6511516000","-117.9905260000"
"dc2146","destination charger","","","","0","33.1000510000","-117.2850390000"
"dc386","destination charger","","","","0","39.6433049000","-106.3882985000"
"dc3985","destination charger","","","","0","36.9104560000","-80.3174400000"
"dc4594","destination charger","","","","0","35.4492970000","-120.9058870000"
"dc4638","destination charger","","","","0","47.3471843000","-123.0676404000"
"dc5016","destination charger","","","","0","33.7603000000","-116.3622180000"
"dc2025","destination charger","","","","0","32.6417450000","-96.8885060000"
"dc4913","destination charger","","","","0","38.9788384000","-92.5654654000"
"dc489","destination charger","","","","0","44.2862790000","-121.5368780000"
"dc2405","destination charger","","","","0","34.0092070000","-118.4928670000"
"dc2748","destination charger","","","","0","36.8166010000","-114.0639870000"
"dc4677","destination charger","","","","0","34.4275540000","-93.0844720000"
"dc4840","destination charger","","","","0","24.9162950000","-80.6333720000"
"dc4852","destination charger","","","","0","34.2587670000","-80.6048340000"
"dc4931","destination charger","","","","0","35.5841580000","-120.7149710000"
"dc4064","destination charger","","","","0","38.4072190000","-122.9464300000"
"dc4956","destination charger","","","","0","39.5596250000","-120.8280170000"
"dc4683","destination charger","","","","0","38.5073420000","-122.4285430000"
"dc4699","destination charger","","","","0","42.3525640000","-73.2885070000"
"dc5101","destination charger","","","","0","27.9602720000","-82.5185760000"
"dc4055","destination charger","","","","0","40.1205460000","-82.0227560000"
"dc4674","destination charger","","","","0","40.0398040000","-76.2813700000"
"dc4743","destination charger","","","","0","42.3628480000","-73.2818329000"
"mojavesupercharger","supercharger","standard charger","","","1","35.0524630000","-118.1759470000"
"sangerhausensupercharger","supercharger","standard charger","","","0","51.4504700000","11.3043890000"
"tremontonsupercharger","supercharger","standard charger","","","0","41.7099500000","-112.1985760000"
"emeishanhongzhushanhotelsupercharger","supercharger","standard charger","","","0","29.5625500000","103.4454040000"
"dc5935","destination charger","","","","0","49.1345520000","-119.5926540000"
"dc1205","destination charger","","","","0","43.0572790000","-73.8043340000"
"dc1215","destination charger","","","","0","34.0176500000","-118.5012170000"
"dc1616","destination charger","","","","0","25.8127620000","-80.1229040000"
"dc1503","destination charger","","","","0","38.3128910000","-122.4824710000"
"dc4873","destination charger","","","","0","37.5032670000","-122.4938310000"
"dc5089","destination charger","","","","0","49.2324880000","-123.1193160000"
"dc2725","destination charger","","","","0","40.7567220000","-73.9740600000"
"dc2284","destination charger","","","","0","50.2811660000","-119.2765360000"
"dc4586","destination charger","","","","0","41.9708140000","-87.6677516000"
"dc2198","destination charger","","","","0","33.8484010000","-84.3653850000"
"dc5861","destination charger","","","","0","45.8383610000","-76.7035740000"
"dc4730","destination charger","","","","0","38.6921180000","-76.1754490000"
"dc2787","destination charger","","","","0","24.5536090000","-81.7947640000"
"dc4707","destination charger","","","","0","43.7246220000","-72.6158105000"
"dc1732","destination charger","","","","0","37.6513210000","-118.9861230000"
"dc2738","destination charger","","","","0","42.4962120000","-90.6644360000"
"dc4054","destination charger","","","","0","38.0440242000","-78.9045217000"
"dc4082","destination charger","","","","0","45.2659050000","-123.0555000000"
"dc4653","destination charger","","","","0","40.3831550000","-82.2118000000"
"dc4656","destination charger","","","","0","35.1067998000","-77.0424700000"
"dc4687","destination charger","","","","0","34.7250279000","-83.4535375000"
"dc4818","destination charger","","","","0","40.1988030000","-77.1900500000"
"effinghamilsupercharger","supercharger","standard charger","","","0","39.1371140000","-88.5634680000"
"dc2362","destination charger","standard charger","","","0","-33.8555840000","151.2094880000"
"dc5139","destination charger","standard charger","","","0","-31.4310600000","152.9190690000"
"dc5963","destination charger","standard charger","","","0","-37.8866760000","145.0811940000"
"drummondvilleqcsupercharger","supercharger","standard charger","","","0","45.8990840000","-72.5194200000"
"nempitzsupercharger","supercharger","standard charger","","","0","51.2900430000","12.1373280000"
"dc4049","destination charger","","","","0","35.5034205000","139.4884390000"
"dc2774","destination charger","","","","0","35.5157407000","139.5685182000"
"dc2189","destination charger","","","","0","34.8098670000","135.4959570000"
"dc4838","destination charger","","","","0","34.9046470000","139.8754470000"
"dc4050","destination charger","","","","0","35.0136630000","136.5030552000"
"dc4052","destination charger","","","","0","35.1466819000","139.8314615000"
"dc5214","destination charger","","","","0","34.3923597000","133.2876680000"
"dc2098","destination charger","","","","0","35.6415160000","139.7153550000"
"dc5215","destination charger","","","","0","36.4636316000","140.0863307000"
"mensbechsupercharger","supercharger","standard charger","","","0","49.6408150000","6.2706810000"
"kozinasupercharger","supercharger","standard charger","","","0","45.6049000000","13.9284970000"
"beijingqinghebaisupercharger","supercharger","standard charger","","","0","40.0327720000","116.3911430000"
"aarhusviborgvej","store","service","","","0","56.1780320000","10.1391330000"
"bordeauxmerignac","store","service","","","0","44.8338420000","-0.6752690000"
"dc460","destination charger","","","","0","32.7157970000","-117.1615440000"
"dc487","destination charger","","","","0","45.8770183000","-123.9619663000"
"dc2126","destination charger","","","","0","30.4459900000","-97.8688450000"
"dc2137","destination charger","","","","0","35.1926730000","-101.9329790000"
"dc2391","destination charger","","","","0","38.5999180000","-122.6392620000"
"dc3417","destination charger","","","","0","33.1466640000","-117.2420440000"
"dc3465","destination charger","","","","0","33.8016430000","-116.5292910000"
"dc3932","destination charger","","","","0","38.9508370000","-92.3287970000"
"dc4065","destination charger","","","","0","32.0682392000","-81.0925612000"
"dc4566","destination charger","","","","0","29.0488050000","-95.5664590000"
"dc4571","destination charger","","","","0","40.7574400000","-111.8905450000"
"dc4588","destination charger","","","","0","34.6928310000","-83.6816810000"
"dc4647","destination charger","","","","0","37.9237706000","-79.2036335000"
"dc4789","destination charger","","","","0","44.0311193000","-69.5425126000"
"dc4844","destination charger","","","","0","40.0068960000","-75.2107630000"
"dc4851","destination charger","","","","0","33.5014850000","-111.9240580000"
"dc4907","destination charger","","","","0","43.8617455000","-70.1002136000"
"dc4921","destination charger","","","","0","39.8459468000","-75.6321627000"
"dc4937","destination charger","","","","0","39.1451620000","-123.1978070000"
"dc5046","destination charger","","","","0","38.2926150000","-122.2870150000"
"dc5088","destination charger","","","","0","36.1242390000","-121.6370410000"
"dc6001","destination charger","","","","0","43.6859080000","-114.3666800000"
"dc6025","destination charger","","","","0","29.0421520000","-95.4013480000"
"dc1468","destination charger","","","","0","42.3361210000","-73.2589239000"
"dc1619","destination charger","","","","0","43.6113070000","-116.2733311000"
"dc1832","destination charger","","","","0","38.3052750000","-122.2834530000"
"dc4612","destination charger","","","","0","37.7947045000","-79.4699173000"
"dc4811","destination charger","","","","0","42.2989220000","-73.2920230000"
"dc5012","destination charger","","","","0","30.3848280000","-86.3239390000"
"stuhrsupercharger","supercharger","standard charger","","","0","53.0283500000","8.8060880000"
"perryoksupercharger","supercharger","standard charger","","","0","36.2893150000","-97.3259350000"
"hongkongscienceandtechnologyparkssupercharger","supercharger","standard charger","","","0","22.4279530000","114.2103580000"
"dc5440","destination charger","","","","0","30.6140860000","114.2626830000"
"dc5578","destination charger","","","","0","39.9459510000","116.4628510000"
"dc5629","destination charger","","","","0","24.4879740000","118.1827480000"
"dc5332","destination charger","","","","0","31.1944180000","121.4417650000"
"dc5354","destination charger","","","","0","34.3617310000","109.1803850000"
"dc5419","destination charger","","","","0","30.5991270000","119.5937320000"
"dc5472","destination charger","","","","0","34.7541320000","113.7663900000"
"dc5810","destination charger","","","","0","19.1917010000","110.5949980000"
"dc5545","destination charger","","","","0","39.8911450000","116.4677310000"
"dc5321","destination charger","","","","0","29.8564030000","106.3803310000"
"dc5796","destination charger","","","","0","30.2673400000","120.0870300000"
"dc5741","destination charger","","","","0","22.4890750000","113.9191780000"
"dc5579","destination charger","","","","0","39.9797170000","116.3488800000"
"dc5473","destination charger","","","","0","39.9154550000","116.3622790000"
"dc5630","destination charger","","","","0","39.9474920000","116.4190920000"
"dc6037","destination charger","","","","0","39.9357480000","116.3091940000"
"dc6038","destination charger","","","","0","40.0871590000","116.3013290000"
"dc5355","destination charger","","","","0","39.9878750000","116.4139200000"
"dc5396","destination charger","","","","0","34.2138970000","92.4421800000"
"dc5562","destination charger","","","","0","30.6515150000","104.0667260000"
"dc5397","destination charger","","","","0","29.6463510000","91.1061710000"
"dc5742","destination charger","","","","0","22.8347070000","113.2687180000"
"dc5678","destination charger","","","","0","39.9184040000","116.4563630000"
"dc5743","destination charger","","","","0","22.5475280000","114.2294940000"
"dc5641","destination charger","","","","0","22.5489050000","113.8805350000"
"dc5744","destination charger","","","","0","22.6349290000","114.0265880000"
"dc5745","destination charger","","","","0","22.5346850000","114.0224700000"
"dc5746","destination charger","","","","0","22.5225820000","114.0522210000"
"dc5747","destination charger","","","","0","22.5392000000","113.9522790000"
"dc5681","destination charger","","","","0","36.6507950000","117.0857160000"
"dc5696","destination charger","","","","0","36.6721340000","117.1318780000"
"dc5653","destination charger","","","","0","31.2100340000","121.5171380000"
"dc5751","destination charger","","","","0","23.0035790000","113.1291500000"
"dc5670","destination charger","","","","0","31.0815670000","121.2655360000"
"dc5474","destination charger","","","","0","34.7848940000","113.6815090000"
"dc5500","destination charger","","","","0","29.5694820000","106.4922710000"
"dc5779","destination charger","","","","0","29.6082890000","106.5081810000"
"dc5398","destination charger","","","","0","31.4887810000","92.0622940000"
"dc5753","destination charger","","","","0","22.5332280000","114.0544370000"
"dc5418","destination charger","","","","0","24.9792960000","102.8481180000"
"dc5356","destination charger","","","","0","40.3403280000","116.0553920000"
"dc5315","destination charger","","","","0","21.5784220000","111.8796480000"
"dc5333","destination charger","","","","0","29.7046000000","118.3364310000"
"dc5316","destination charger","","","","0","21.2333100000","110.3963190000"
"dc5493","destination charger","","","","0","22.5687030000","114.2511450000"
"dc5399","destination charger","","","","0","37.8570600000","95.3545380000"
"dc5502","destination charger","","","","0","39.0017350000","121.6133120000"
"dc5420","destination charger","","","","0","30.0583380000","118.9945060000"
"dc5400","destination charger","","","","0","30.0977990000","90.5281380000"
"dc5638","destination charger","","","","0","30.5588980000","114.2654620000"
"dc5640","destination charger","","","","0","39.8908130000","116.4780710000"
"dc5511","destination charger","","","","0","31.2865620000","121.4480810000"
"dc5632","destination charger","","","","0","23.0359750000","113.1912440000"
"dc5323","destination charger","","","","0","30.0628160000","103.8512700000"
"dc5334","destination charger","","","","0","29.3006920000","120.0847080000"
"dc5357","destination charger","","","","0","40.1062690000","94.6702690000"
"dc5335","destination charger","","","","0","31.7796060000","119.9749810000"
"dc5809","destination charger","","","","0","24.3388690000","113.3235190000"
"dc5512","destination charger","","","","0","30.2907560000","120.1450030000"
"dc5494","destination charger","","","","0","22.9023530000","113.6583430000"
"dc5797","destination charger","","","","0","31.8239270000","117.2327680000"
"dc5298","destination charger","","","","0","28.1157680000","121.2265950000"
"dc5583","destination charger","","","","0","22.9407830000","113.6822200000"
"dc5444","destination charger","","","","0","32.0418120000","118.7805100000"
"dc5375","destination charger","","","","0","22.3288750000","112.2305240000"
"dc5719","destination charger","","","","0","39.9095600000","116.3730870000"
"dc6040","destination charger","","","","0","37.5640560000","121.2327190000"
"dc5358","destination charger","","","","0","40.6447840000","117.2612440000"
"dc5376","destination charger","","","","0","19.1459830000","110.5772800000"
"dc5377","destination charger","","","","0","20.0507870000","110.2167480000"
"dc5336","destination charger","","","","0","30.2667690000","120.1427510000"
"dc5515","destination charger","","","","0","30.2738540000","120.1615190000"
"dc5421","destination charger","","","","0","30.1766170000","120.1050890000"
"dc5495","destination charger","","","","0","23.1239110000","113.3437410000"
"dc6036","destination charger","","","","0","31.3183190000","120.7148580000"
"dc5639","destination charger","","","","0","33.8825030000","115.7721280000"
"dc5425","destination charger","","","","0","33.1202650000","113.7372300000"
"dc5378","destination charger","","","","0","22.9357780000","113.6685370000"
"dc5337","destination charger","","","","0","31.1345130000","121.5816080000"
"dc5359","destination charger","","","","0","39.7655890000","98.2772070000"
"dc5556","destination charger","","","","0","22.5434760000","114.1144970000"
"dc5308","destination charger","","","","0","33.8586290000","113.0776030000"
"dc5426","destination charger","","","","0","39.8274380000","122.3017060000"
"dc5360","destination charger","","","","0","39.9508170000","116.4385790000"
"dc5379","destination charger","","","","0","24.4759790000","118.0971440000"
"dc5517","destination charger","","","","0","31.9744580000","118.7748700000"
"dc5475","destination charger","","","","0","39.9728790000","116.2948690000"
"dc5518","destination charger","","","","0","30.3822310000","114.3727660000"
"dc5557","destination charger","","","","0","22.5601990000","113.1379890000"
"dc5801","destination charger","","","","0","45.7215940000","126.6096830000"
"dc5496","destination charger","","","","0","22.5336130000","114.0599820000"
"dc5497","destination charger","","","","0","22.5450210000","114.0121070000"
"dc5755","destination charger","","","","0","22.5358700000","114.0596950000"
"dc5401","destination charger","","","","0","30.6625250000","104.0765390000"
"dc5445","destination charger","","","","0","32.0237450000","118.7859450000"
"dc5338","destination charger","","","","0","31.9183380000","120.2794350000"
"dc5402","destination charger","","","","0","29.8071000000","106.3963000000"
"dc5584","destination charger","","","","0","27.0780130000","120.1179500000"
"dc5309","destination charger","","","","0","36.6824100000","117.1250190000"
"dc5362","destination charger","","","","0","39.9166010000","116.4262460000"
"dc5476","destination charger","","","","0","39.7529970000","116.5069770000"
"dc5363","destination charger","","","","0","34.3893070000","113.7540620000"
"dc5317","destination charger","","","","0","29.7161170000","115.9987980000"
"dc5568","destination charger","","","","0","30.6214420000","121.1344630000"
"dc5364","destination charger","","","","0","40.0666530000","117.4597160000"
"dc5631","destination charger","","","","0","39.9045880000","116.3599970000"
"dc5427","destination charger","","","","0","22.5779330000","114.4796820000"
"dc5324","destination charger","","","","0","28.8267780000","104.9691250000"
"dc5585","destination charger","","","","0","23.0373710000","113.7773090000"
"dc5588","destination charger","","","","0","29.4555560000","106.5211080000"
"dc5501","destination charger","","","","0","25.0061580000","102.7098050000"
"dc5446","destination charger","","","","0","31.4388610000","120.9752440000"
"dc5365","destination charger","","","","0","36.6634280000","117.0245430000"
"dc5570","destination charger","","","","0","31.4618440000","121.8189780000"
"dc5299","destination charger","","","","0","31.0952660000","121.2054500000"
"dc5477","destination charger","","","","0","35.7628060000","116.7974030000"
"dc5381","destination charger","","","","0","26.8921160000","112.5540070000"
"dc5441","destination charger","","","","0","30.4586560000","114.3887790000"
"dc5310","destination charger","","","","0","37.4433000000","116.3754000000"
"dc5569","destination charger","","","","0","22.5514780000","114.5617150000"
"dc5564","destination charger","","","","0","25.0817850000","102.7574470000"
"dc5447","destination charger","","","","0","31.2481760000","121.4493920000"
"dc5478","destination charger","","","","0","34.2120660000","108.9663080000"
"dc5428","destination charger","","","","0","18.2290800000","109.6358300000"
"dc5565","destination charger","","","","0","31.4402190000","104.7566610000"
"dc5340","destination charger","","","","0","29.0290150000","119.1666400000"
"dc5366","destination charger","","","","0","34.3248270000","108.9464000000"
"dc5403","destination charger","","","","0","30.6485940000","104.0671000000"
"dc5581","destination charger","","","","0","34.9242940000","113.5149040000"
"dc5436","destination charger","","","","0","21.9685710000","100.4687150000"
"dc5590","destination charger","","","","0","25.0380470000","102.7006820000"
"dc5429","destination charger","","","","0","18.5642010000","110.1468120000"
"dc5341","destination charger","","","","0","33.6193690000","119.1260860000"
"dc5342","destination charger","","","","0","34.2449980000","117.1343680000"
"dc5437","destination charger","","","","0","22.0109050000","100.8204540000"
"dc5300","destination charger","","","","0","29.9106120000","121.7850510000"
"dc5422","destination charger","","","","0","29.2846690000","121.4158780000"
"dc5479","destination charger","","","","0","34.3416940000","108.9369760000"
"dc5382","destination charger","","","","0","22.5360340000","113.9982830000"
"dc5526","destination charger","","","","0","31.2920660000","121.4207800000"
"dc6044","destination charger","","","","0","24.4916710000","110.3954690000"
"dc5325","destination charger","","","","0","29.6477060000","106.7882560000"
"dc5383","destination charger","","","","0","28.6780350000","115.8872270000"
"dc5384","destination charger","","","","0","23.5651810000","113.7865290000"
"dc5343","destination charger","","","","0","28.0407240000","120.6271170000"
"dc5781","destination charger","","","","0","30.6647410000","104.1193660000"
"dc5443","destination charger","","","","0","22.5812910000","113.3939740000"
"dc5302","destination charger","","","","0","29.8311490000","121.5700900000"
"dc5571","destination charger","","","","0","29.9140010000","122.4072270000"
"dc5385","destination charger","","","","0","28.1150220000","113.0017190000"
"dc5404","destination charger","","","","0","38.1800850000","100.2475910000"
"dc5722","destination charger","","","","0","36.0940150000","120.4178220000"
"dc5582","destination charger","","","","0","36.0632800000","120.3810820000"
"dc5405","destination charger","","","","0","36.5593570000","100.5410500000"
"dc5367","destination charger","","","","0","32.9650340000","114.6377820000"
"dc5368","destination charger","","","","0","39.9381830000","119.5925020000"
"dc5430","destination charger","","","","0","24.9427990000","118.6018330000"
"dc5318","destination charger","","","","0","24.7978700000","113.6011570000"
"dc5386","destination charger","","","","0","27.7293070000","114.7984570000"
"dc5387","destination charger","","","","0","22.9038170000","113.6605000000"
"dc5319","destination charger","","","","0","22.6434810000","114.7489370000"
"dc5406","destination charger","","","","0","29.5917850000","103.4814800000"
"dc5388","destination charger","","","","0","22.7392700000","114.2810720000"
"dc5407","destination charger","","","","0","29.6300800000","91.0787530000"
"dc5438","destination charger","","","","0","32.2620980000","91.6858770000"
"dc5431","destination charger","","","","0","18.2301940000","109.6424660000"
"dc5432","destination charger","","","","0","18.3525290000","109.7401620000"
"dc5408","destination charger","","","","0","29.6467740000","91.1423590000"
"dc5433","destination charger","","","","0","22.5662610000","114.5392250000"
"dc5528","destination charger","","","","0","31.2708720000","121.5569080000"
"dc5529","destination charger","","","","0","31.3073890000","121.5122090000"
"dc5503","destination charger","","","","0","31.2395480000","121.5025830000"
"dc5344","destination charger","","","","0","31.1989640000","121.5843950000"
"dc5442","destination charger","","","","0","31.1906320000","121.3886240000"
"dc5448","destination charger","","","","0","31.2217120000","121.4246620000"
"dc5449","destination charger","","","","0","31.2047180000","121.4603340000"
"dc5326","destination charger","","","","0","21.4905120000","109.1346620000"
"dc5409","destination charger","","","","0","30.6429470000","104.0855740000"
"dc5327","destination charger","","","","0","25.2958510000","110.3075010000"
"dc5389","destination charger","","","","0","20.0574860000","110.1978170000"
"dc5345","destination charger","","","","0","30.6025270000","114.2830350000"
"dc5370","destination charger","","","","0","34.2325950000","108.8999220000"
"dc5506","destination charger","","","","0","23.3657410000","116.7478560000"
"dc5390","destination charger","","","","0","23.2471770000","116.6223240000"
"dc5548","destination charger","","","","0","41.7683850000","123.4358550000"
"dc5346","destination charger","","","","0","31.6960260000","119.9120460000"
"dc5413","destination charger","","","","0","20.0517680000","110.2151230000"
"dc5311","destination charger","","","","0","40.8251890000","111.6701440000"
"dc5304","destination charger","","","","0","28.0005800000","120.6840710000"
"dc5305","destination charger","","","","0","31.9241320000","120.2821760000"
"dc5423","destination charger","","","","0","29.6085080000","119.0389790000"
"dc5414","destination charger","","","","0","18.3470280000","109.7397630000"
"dc5415","destination charger","","","","0","18.2279630000","109.6330360000"
"dc5391","destination charger","","","","0","22.5355240000","114.0629380000"
"dc5416","destination charger","","","","0","18.6722920000","110.3554420000"
"dc5434","destination charger","","","","0","23.0218070000","113.4447120000"
"dc5633","destination charger","","","","0","23.0079340000","113.3403860000"
"dc5759","destination charger","","","","0","23.0045990000","113.3501420000"
"dc5634","destination charger","","","","0","23.0092240000","113.3412820000"
"dc5635","destination charger","","","","0","23.0332910000","113.3169000000"
"dc5760","destination charger","","","","0","22.3157020000","113.5933350000"
"dc5532","destination charger","","","","0","31.2716160000","121.4735570000"
"dc5572","destination charger","","","","0","31.7569670000","120.9378760000"
"dc5573","destination charger","","","","0","31.7607820000","120.9386240000"
"dc5306","destination charger","","","","0","31.0699230000","120.3623460000"
"dc5533","destination charger","","","","0","31.0366660000","120.7967990000"
"dc5480","destination charger","","","","0","39.9384470000","116.4543250000"
